[
  {
    "corridor_id": "ben-hill-griffin-pkwy",
    "corridor_label": "Ben Hill Griffin Pkwy",
    "center_lat": 26.45,
    "center_lon": -81.74,
    "submarket": "Estero"
  },
  {
    "corridor_id": "bonita-beach-rd-us-41-to-sanibel-causeway",
    "corridor_label": "Bonita Beach Rd (US-41 to Sanibel Causeway)",
    "center_lat": 26.34,
    "center_lon": -81.81,
    "submarket": "Bonita Springs"
  },
  {
    "corridor_id": "cape-coral-coral-pointe",
    "corridor_label": "Cape Coral – Coral Pointe",
    "center_lat": 26.56,
    "center_lon": -81.97,
    "submarket": "Cape Coral"
  },
  {
    "corridor_id": "cape-coral-pkwy-e",
    "corridor_label": "Cape Coral Pkwy E",
    "center_lat": 26.55,
    "center_lon": -81.95,
    "submarket": "Cape Coral"
  },
  {
    "corridor_id": "coconut-point-mall",
    "corridor_label": "Coconut Point Mall",
    "center_lat": 26.4,
    "center_lon": -81.81,
    "submarket": "Estero"
  },
  {
    "corridor_id": "colonial-blvd-east-us-41-to-i-75",
    "corridor_label": "Colonial Blvd East (US-41 to I-75)",
    "center_lat": 26.61,
    "center_lon": -81.84,
    "submarket": "Fort Myers"
  },
  {
    "corridor_id": "daniels-pkwy-i-75-to-ben-hill-griffin",
    "corridor_label": "Daniels Pkwy (I-75 to Ben Hill Griffin)",
    "center_lat": 26.56,
    "center_lon": -81.78,
    "submarket": "Fort Myers"
  },
  {
    "corridor_id": "estero-blvd-fort-myers-beach",
    "corridor_label": "Estero Blvd Fort Myers Beach",
    "center_lat": 26.42,
    "center_lon": -81.94,
    "submarket": "Fort Myers Beach"
  },
  {
    "corridor_id": "gulf-coast-town-center",
    "corridor_label": "Gulf Coast Town Center",
    "center_lat": 26.49,
    "center_lon": -81.81,
    "submarket": "Fort Myers"
  },
  {
    "corridor_id": "pine-island-rd-cape-coral",
    "corridor_label": "Pine Island Rd Cape Coral",
    "center_lat": 26.65,
    "center_lon": -81.97,
    "submarket": "Cape Coral"
  },
  {
    "corridor_id": "six-mile-cypress-pkwy",
    "corridor_label": "Six Mile Cypress Pkwy",
    "center_lat": 26.57,
    "center_lon": -81.84,
    "submarket": "Fort Myers"
  },
  {
    "corridor_id": "summerlin-rd-fort-myers",
    "corridor_label": "Summerlin Rd Fort Myers",
    "center_lat": 26.55,
    "center_lon": -81.91,
    "submarket": "Fort Myers"
  },
  {
    "corridor_id": "three-oaks-pkwy-coconut-rd-estero-bonita-boundary",
    "corridor_label": "Three Oaks Pkwy / Coconut Rd (Estero/Bonita boundary)",
    "center_lat": 26.36,
    "center_lon": -81.79,
    "submarket": "Estero"
  },
  {
    "corridor_id": "us-41-bonita-springs",
    "corridor_label": "US-41 Bonita Springs",
    "center_lat": 26.34,
    "center_lon": -81.78,
    "submarket": "Bonita Springs"
  },
  {
    "corridor_id": "us-41-cleveland-ave-fort-myers",
    "corridor_label": "US-41 / Cleveland Ave Fort Myers",
    "center_lat": 26.64,
    "center_lon": -81.87,
    "submarket": "Fort Myers"
  },
  {
    "corridor_id": "veterans-pkwy-colonial-blvd-midpoint-bridge-corridor",
    "corridor_label": "Veterans Pkwy / Colonial Blvd (Midpoint Bridge Corridor)",
    "center_lat": 26.6,
    "center_lon": -81.92,
    "submarket": "Fort Myers"
  }
]
