[
  {
    "corridor_id": "ben-hill-griffin-pkwy",
    "corridor_label": "Ben Hill Griffin Pkwy",
    "display_name": "Ben Hill Griffin",
    "center_lat": 26.45,
    "center_lon": -81.74,
    "submarket": "Estero",
    "county": "lee"
  },
  {
    "corridor_id": "lee-blvd-lehigh-acres",
    "corridor_label": "Lee Blvd Lehigh Acres",
    "display_name": "Lee Blvd",
    "center_lat": 26.61,
    "center_lon": -81.67,
    "submarket": "Lehigh Acres",
    "county": "lee"
  },
  {
    "corridor_id": "bonita-beach-rd-bonita-beach",
    "corridor_label": "Bonita Beach Rd / Bonita Beach",
    "display_name": "Bonita Beach",
    "center_lat": 26.34,
    "center_lon": -81.81,
    "submarket": "Bonita Springs",
    "county": "lee"
  },
  {
    "corridor_id": "bonita-trail",
    "corridor_label": "Bonita Trail",
    "display_name": "Bonita Trail",
    "center_lat": 26.34,
    "center_lon": -81.78,
    "submarket": "Bonita Springs",
    "county": "lee"
  },
  {
    "corridor_id": "cape-coral-coral-pointe",
    "corridor_label": "Cape Coral – Coral Pointe",
    "display_name": "Coral Pointe (Cape Coral)",
    "center_lat": 26.56,
    "center_lon": -81.97,
    "submarket": "Cape Coral",
    "county": "lee"
  },
  {
    "corridor_id": "cape-coral-pkwy-e",
    "corridor_label": "Cape Coral Pkwy E",
    "display_name": "Cape Coral Pkwy",
    "center_lat": 26.55,
    "center_lon": -81.95,
    "submarket": "Cape Coral",
    "county": "lee"
  },
  {
    "corridor_id": "cleveland-ave-fort-myers",
    "corridor_label": "Cleveland Ave Fort Myers",
    "display_name": "Cleveland Ave",
    "center_lat": 26.64,
    "center_lon": -81.87,
    "submarket": "Fort Myers",
    "county": "lee"
  },
  {
    "corridor_id": "coconut-point-mall",
    "corridor_label": "Coconut Point Mall",
    "display_name": "Coconut Point",
    "center_lat": 26.4,
    "center_lon": -81.81,
    "submarket": "Estero",
    "county": "lee"
  },
  {
    "corridor_id": "colonial-east",
    "corridor_label": "Colonial East",
    "display_name": "Colonial East",
    "center_lat": 26.61,
    "center_lon": -81.84,
    "submarket": "Fort Myers",
    "county": "lee"
  },
  {
    "corridor_id": "daniels-pkwy",
    "corridor_label": "Daniels Pkwy",
    "display_name": "Daniels",
    "center_lat": 26.56,
    "center_lon": -81.78,
    "submarket": "Fort Myers",
    "county": "lee"
  },
  {
    "corridor_id": "estero-blvd-fort-myers-beach",
    "corridor_label": "Estero Blvd Fort Myers Beach",
    "display_name": "Fort Myers Beach",
    "center_lat": 26.42,
    "center_lon": -81.94,
    "submarket": "Fort Myers Beach",
    "county": "lee"
  },
  {
    "corridor_id": "gulf-coast-town-center",
    "corridor_label": "Gulf Coast Town Center",
    "display_name": "Gulf Coast Town Center",
    "center_lat": 26.49,
    "center_lon": -81.81,
    "submarket": "Fort Myers",
    "county": "lee"
  },
  {
    "corridor_id": "midpoint-bridge-corridor",
    "corridor_label": "Midpoint Bridge Corridor",
    "display_name": "Midpoint Bridge",
    "center_lat": 26.6,
    "center_lon": -81.92,
    "submarket": "Fort Myers",
    "county": "lee"
  },
  {
    "corridor_id": "pine-island-rd-cape-coral",
    "corridor_label": "Pine Island Rd Cape Coral",
    "display_name": "Pine Island Rd",
    "center_lat": 26.65,
    "center_lon": -81.97,
    "submarket": "Cape Coral",
    "county": "lee"
  },
  {
    "corridor_id": "six-mile-cypress-pkwy",
    "corridor_label": "Six Mile Cypress Pkwy",
    "display_name": "Six Mile Cypress",
    "center_lat": 26.57,
    "center_lon": -81.84,
    "submarket": "Fort Myers",
    "county": "lee"
  },
  {
    "corridor_id": "summerlin-rd-fort-myers",
    "corridor_label": "Summerlin Rd Fort Myers",
    "display_name": "Summerlin",
    "center_lat": 26.55,
    "center_lon": -81.91,
    "submarket": "Fort Myers",
    "county": "lee"
  },
  {
    "corridor_id": "three-oaks-pkwy-coconut-rd-estero-bonita-boundary",
    "corridor_label": "Three Oaks Pkwy / Coconut Rd (Estero/Bonita boundary)",
    "display_name": "Estero / Bonita line",
    "center_lat": 26.36,
    "center_lon": -81.79,
    "submarket": "Estero",
    "county": "lee"
  },
  {
    "corridor_id": "5th-ave-south-3rd-street-south",
    "corridor_label": "5th Ave South / 3rd Street South",
    "display_name": "Downtown Naples",
    "center_lat": 26.138,
    "center_lon": -81.797,
    "submarket": "Naples",
    "county": "collier"
  },
  {
    "corridor_id": "airport-pulling-naples",
    "corridor_label": "Airport-Pulling Naples",
    "display_name": "Airport-Pulling",
    "center_lat": 26.19,
    "center_lon": -81.776,
    "submarket": "Naples",
    "county": "collier"
  },
  {
    "corridor_id": "collier-blvd-cr-951",
    "corridor_label": "Collier Blvd (CR-951)",
    "display_name": "Collier Blvd",
    "center_lat": 26.156,
    "center_lon": -81.654,
    "submarket": "Naples",
    "county": "collier"
  },
  {
    "corridor_id": "davis-blvd-east-naples",
    "corridor_label": "Davis Blvd – East Naples",
    "display_name": "East Naples",
    "center_lat": 26.137,
    "center_lon": -81.756,
    "submarket": "Naples",
    "county": "collier"
  },
  {
    "corridor_id": "immokalee-rd-north-naples",
    "corridor_label": "Immokalee Rd – North Naples",
    "display_name": "North Naples (Immokalee Rd)",
    "center_lat": 26.27,
    "center_lon": -81.748,
    "submarket": "Naples",
    "county": "collier"
  },
  {
    "corridor_id": "pine-ridge-rd-naples",
    "corridor_label": "Pine Ridge Rd Naples",
    "display_name": "Pine Ridge",
    "center_lat": 26.198,
    "center_lon": -81.748,
    "submarket": "Naples",
    "county": "collier"
  },
  {
    "corridor_id": "tamiami-naples",
    "corridor_label": "Tamiami Naples",
    "display_name": "East Trail (Naples)",
    "center_lat": 26.12,
    "center_lon": -81.764,
    "submarket": "Naples",
    "county": "collier"
  },
  {
    "corridor_id": "vanderbilt-beach-rd-mercato",
    "corridor_label": "Vanderbilt Beach Rd / Mercato",
    "display_name": "Vanderbilt",
    "center_lat": 26.252,
    "center_lon": -81.776,
    "submarket": "Naples",
    "county": "collier"
  },
  {
    "corridor_id": "waterside-shops",
    "corridor_label": "Waterside Shops",
    "display_name": "Waterside",
    "center_lat": 26.22,
    "center_lon": -81.802,
    "submarket": "Naples",
    "county": "collier"
  }
]
